Time,Latitude,Longitude,Altitude,Roll,Pitch,Yaw
2024-11-05 09:22:35.009261,37.69639028301507,-122.32569197520598,1300.0,1.5792128155073915,1.7910519991779625,136.50291057349017
2024-11-05 09:23:35.009261,37.599546893058495,-122.21048575802917,1600.0,-0.00893739924253287,0.6169073736971531,136.55762847943498
2024-11-05 09:24:35.009261,37.50259338425379,-122.09556886944362,1900.0,0.33684893713999325,1.6335354017362829,136.62465454827213
2024-11-05 09:25:35.009261,37.40553058328829,-121.98093964796598,2200.0,-0.8029443723318355,0.894884316382835,136.69124531500836
2024-11-05 09:26:35.009261,37.3083593222589,-121.86659642384555,2500.0,-1.913258653311166,1.132505900450495,136.75739605886287
2024-11-05 09:27:35.009261,37.21108043954618,-121.75253751793915,2800.0,-0.7777778386435739,0.9847320800722654,136.82310150317483
2024-11-05 09:28:35.009261,37.113694780795456,-121.63876124044079,3100.0,1.1640334325895934,0.735421678999248,136.8883557461611
2024-11-05 09:29:35.009261,37.01620320002291,-121.5252658894431,3400.0,-0.8413940152091166,0.38833922583217095,136.95315218047256
2024-11-05 09:30:35.009261,36.918606560867026,-121.41204974930245,3700.0,-0.30990830973764855,1.5252474484217369,137.01748339930492
2024-11-05 09:31:35.009261,36.82090573801102,-121.2991110887741,4000.0,-0.7871992645187771,1.0883946174416537,137.081341086272
2024-11-05 09:32:35.009261,36.72310161880672,-121.18644815887632,4300.0,1.6376925372050242,0.43069214919478693,137.14471588555267
2024-11-05 09:33:35.009261,36.62519510513758,-121.07405919043357,4600.0,-0.5841246434138111,1.5705638866856155,137.20759724791748
2024-11-05 09:34:35.009261,36.52718711556682,-120.96194239123686,4900.0,0.3293643524162439,1.080691310991261,137.2699732470511
2024-11-05 09:35:35.009261,36.42907858782836,-120.85009594274466,5200.0,-0.4658835462874824,1.2617878068539214,137.33183035902118
2024-11-05 09:36:35.009261,36.330870481732056,-120.738517996229,5500.0,0.029620410645418906,1.3947619837978282,137.3931531956589
2024-11-05 09:37:35.009261,36.23256378257399,-120.62720666824582,5800.0,-1.7080702804135632,1.8226990252578097,137.45392417978667
2024-11-05 09:38:35.009261,36.13415950516701,-120.51616003527569,6100.0,-0.2439475679284709,1.631548313652281,137.5141231463939
2024-11-05 09:39:35.009261,36.0356586986403,-120.4053761273376,6400.0,-0.5088999421579095,0.6161560772306275,137.5737268485393
2024-11-05 09:40:35.009261,35.937062452200834,-120.29485292031826,6700.0,1.6498828377323878,1.021244818396914,137.63270833931256
2024-11-05 09:41:35.009261,35.83837190211157,-120.18458832667844,7000.0,0.9310382018055489,2.1004711584101683,137.69103619059945
2024-11-05 09:42:35.009261,35.7395882402258,-120.07458018408478,7300.0,-1.622739329259515,1.1698053115057943,137.74867349408322
2024-11-05 09:43:35.009261,35.640712724538076,-119.96482624135557,7600.0,1.172523984434809,1.2729732598257097,137.80557656738324
2024-11-05 09:44:35.009261,35.54174669238503,-119.85532414087892,7900.0,-1.4739098551956757,1.7176398597785678,137.86169325439323
2024-11-05 09:45:35.009261,35.442691577184156,-119.74607139632491,8200.0,0.4180405201041596,2.0841607444541363,137.91696065695874
2024-11-05 09:46:35.009261,35.34354892998093,-119.63706536396622,8500.0,-1.6879361800181503,1.91053799790541,137.97130205331877
2024-11-05 09:47:35.009261,35.24432044766404,-119.52830320514191,8800.0,0.018372673019529134,1.1337002946201016,138.02462262659776
2024-11-05 09:48:35.009261,35.14500801064248,-119.41978183616256,9100.0,-0.5201718679903317,1.3904501187890623,138.07680340607106
2024-11-05 09:49:35.009261,35.04561373431081,-119.31149785992892,9400.0,-2.0776886548615625,1.9939910223201225,138.12769244233698
2024-11-05 09:50:35.009261,34.946140041238436,-119.20344747008721,9700.0,1.0332722295826733,1.3820615793816247,138.17709154942133
2024-11-05 09:51:35.009261,34.84658976566975,-119.09562631240163,10000.0,-0.5716674849981944,1.206767745497784,138.2247356442963
2024-11-05 09:52:35.009261,34.74696631066743,-118.98802927648346,10000.0,0.8377157760780024,0.22959003961421834,138.27025910264547
2024-11-05 09:53:35.009261,34.64727389577923,-118.88065016787506,10000.0,1.4505511205025146,0.09827738825578732,138.31313793643085
2024-11-05 09:54:35.009261,34.547517971283554,-118.7734811601879,10000.0,0.9876095247910641,-0.10699442211275448,138.3525834522046
2024-11-05 09:55:35.009261,34.44770596715568,-118.66651180577304,10000.0,-0.6098932527746707,-0.19385077996799208,138.3873287047212
2024-11-05 09:56:35.009261,34.34784879984569,-118.55972704815218,10000.0,0.82280023639442,0.25363701555364887,138.41514536708587
2024-11-05 09:57:35.009261,34.24796441800388,-118.45310255257786,10000.0,0.6092631383911422,0.09330456157817905,138.4315449111811
2024-11-05 09:58:35.009261,34.14808859046121,-118.34659052889172,10000.0,0.6496699470152378,-0.049587931889691454,138.42517013986003
2024-11-05 09:59:35.009261,34.04833062659554,-118.24004675323344,10000.0,-0.04648440021070227,-0.7153875510590241,138.34925274506372
2024-11-05 10:00:35.009261,34.07500565678158,-118.08400378368637,10000.0,-6.001620009894916,-0.14055014644297745,78.34925274506372
2024-11-05 10:01:35.009261,34.16385072811309,-117.9646393775955,10000.0,-1.9946154865532124,-0.2868500019692895,48.13984104999918
2024-11-05 10:02:35.009261,34.2525667591862,-117.8450162655909,10000.0,0.6583770620119748,-0.7881960784921247,48.21249125318184
2024-11-05 10:03:35.009261,34.34115266135058,-117.72513299810232,10000.0,0.08292135405589555,-0.6414961120942848,48.28568480912952
2024-11-05 10:04:35.009261,34.429607300352174,-117.60498808345916,10000.0,0.9224744435738136,0.17324423794899635,48.359446035585506
2024-11-05 10:05:35.009261,34.5179294899625,-117.48457998169938,10000.0,1.639627925481603,-0.573172696509344,48.43380275375159
2024-11-05 10:06:35.009261,34.606117984275734,-117.36390709706609,10000.0,-0.9851436603539527,-1.0766950568018574,48.508787022979845
2024-11-05 10:07:35.009261,34.694171468305086,-117.24296776882694,10000.0,-1.6866527261948143,-0.049169813397374945,48.5844360789867
2024-11-05 10:08:35.009261,34.78208854637968,-117.12176025992322,10000.0,0.12866062538667977,0.27164901451819395,48.66079354723945
2024-11-05 10:09:35.009261,34.86986772765749,-117.0002827427708,10000.0,0.970305574061575,1.1052615007956756,48.737911034439435
2024-11-05 10:10:35.009261,34.95750740779592,-116.87853328126455,10000.0,1.2341639270158369,-0.6048205093456027,48.81585024894997
2024-11-05 10:11:35.009261,35.0450058454132,-116.75650980763146,10000.0,0.14011054038954585,-0.07623491819027195,48.89468587623713
2024-11-05 10:12:35.009261,35.132361131344055,-116.63421009215428,10000.0,0.03483313075047566,-0.004559498322101772,48.9745095568133
2024-11-05 10:13:35.009261,35.21957114769844,-116.51163170280027,10000.0,-0.20669904097351305,0.745363068424976,49.05543551629364
2024-11-05 10:14:35.009261,35.30663351210598,-116.38877195017574,10000.0,-1.472063799639804,0.09167995988957782,49.13760874590554
2024-11-05 10:15:35.009261,35.393545499768074,-116.26562781048709,10000.0,0.7490627480686098,0.14964629020324596,49.22121725861717
2024-11-05 10:16:35.009261,35.48030393103913,-116.14219581432457,10000.0,1.335301964314747,0.27811500470032996,49.30651112820544
2024-11-05 10:17:35.009261,35.56690500308666,-116.01847187997832,10000.0,-0.24141427199203513,0.8036727880099963,49.39383337850359
2024-11-05 10:18:35.009261,35.653344025874674,-115.89445105182114,10000.0,-0.20153663584030837,-0.42526022710465006,49.48367283585219
2024-11-05 10:19:35.009261,35.73961498315558,-115.77012706501259,10000.0,-1.5178989842882564,0.631292051713591,49.57676079923425
2024-11-05 10:20:35.009261,35.82570974452154,-115.64549156382216,10000.0,-0.07455543537329905,-0.06087375419164177,49.67426380486705
2024-11-05 10:21:35.009261,35.91161649544641,-115.52053254365377,10000.0,-0.01885225473077797,0.886125798334872,49.77821560870535
2024-11-05 10:22:35.009261,35.99731609386254,-115.39523073512306,10000.0,0.07652795146129526,0.2579696088520497,49.89266241954243
2024-11-05 10:23:35.009261,36.082771238072056,-115.26954885741655,10000.0,0.44780729205982117,0.45196742054309763,50.02763227436827
2024-11-05 10:24:35.009261,36.16787341750616,-115.14337906530592,10000.0,-0.4101244808471636,0.5742228545983774,50.22242965866883
2024-11-05 10:25:35.009261,36.244159560205,-115.00898557403956,10000.0,-0.6681908000243338,0.2141535486038243,54.95286239613938
2024-11-05 10:26:35.009261,36.29093665879508,-114.85569728107093,9700.0,0.9572138459646102,-1.329175044082447,69.30661373775104
2024-11-05 10:27:35.009261,36.33751544796322,-114.70222774783524,9400.0,-0.9927493001602573,-1.4846353234375291,69.39759803109484
2024-11-05 10:28:35.009261,36.38389536917686,-114.54857722502639,9100.0,0.7464098455201615,-0.8380790961685766,69.48879040668675
2024-11-05 10:29:35.009261,36.430075864515715,-114.39474597049377,8800.0,0.19719828766474667,-0.6452397918915327,69.58019045947879
2024-11-05 10:30:35.009261,36.47605637669376,-114.24073424927225,8500.0,-0.7348366425369237,-1.8057740937854563,69.67179777741228
2024-11-05 10:31:35.009261,36.5218363490814,-114.08654233361185,8200.0,1.908841866084183,-1.1760932450824138,69.76361194138639
2024-11-05 10:32:35.009261,36.56741522572784,-113.93217050300701,7900.0,-1.0827306954562175,-0.44029664830196824,69.85563252522593
2024-11-05 10:33:35.009261,36.61279245138355,-113.77761904422549,7600.0,-1.1859512842210682,-0.6861857513701025,69.94785909565087
2024-11-05 10:34:35.009261,36.65796747152281,-113.62288825133679,7300.0,-1.6757355158381018,-1.5486978714231976,70.04029121224505
2024-11-05 10:35:35.009261,36.70293973236655,-113.46797842574027,7000.0,-0.09958237607246823,-0.9219043752699645,70.13292842742618
2024-11-05 10:36:35.009261,36.747708680905156,-113.31288987619276,6700.0,-1.2218127728699715,-0.8974132265568424,70.22577028641552
2024-11-05 10:37:35.009261,36.79227376492149,-113.15762291883576,6400.0,-2.127920377245954,0.4231114286548936,70.31881632720842
2024-11-05 10:38:35.009261,36.83663443301406,-113.00217787722228,6100.0,-0.6189464118118979,-0.714566101983724,70.41206608054523
2024-11-05 10:39:35.009261,36.880790134620284,-112.84655508234313,5800.0,0.6670334175438392,-0.6769777693618241,70.50551906988244
2024-11-05 10:40:35.009261,36.92474032003987,-112.69075487265283,5500.0,1.068014552622384,0.23406718128043558,70.59917481136449
2024-11-05 10:41:35.009261,36.968484440458376,-112.53477759409505,5200.0,0.8587194623705631,-1.2144487323748017,70.69303281379558
2024-11-05 10:42:35.009261,37.01202194797091,-112.3786236001275,4900.0,-0.5003018839125594,-1.219652997583839,70.7870925786126
2024-11-05 10:43:35.009261,37.055352295605836,-112.2222932517465,4600.0,0.048774260499515235,-1.6468565660658396,70.88135359985813
2024-11-05 10:44:35.009261,37.09847493734876,-112.06578691751096,4300.0,-1.231235261962615,-1.8795254710513234,70.97581536415356
2024-11-05 10:45:35.009261,37.14138932816652,-111.90910497356585,4000.0,1.588429185445022,-1.6533099340890376,71.07047735067334
2024-11-05 10:46:35.009261,37.184094924031335,-111.75224780366523,3700.0,-1.590219211846576,-0.9146765051341319,71.1653390311194
2024-11-05 10:47:35.009261,37.22659118194516,-111.59521579919473,3400.0,-0.4287979994925585,-1.1788291454880144,71.26039986969585
2024-11-05 10:48:35.009261,37.26887755996398,-111.43800935919357,3100.0,1.9843788722978943,-1.9278836440306288,71.35565932308475
2024-11-05 10:49:35.009261,37.310953517222394,-111.28062889037595,2800.0,-0.496225037896267,-1.1865241747259263,71.4511168404216
2024-11-05 10:50:35.009261,37.35281851395821,-111.12307480715202,2500.0,-0.822473154652361,-0.8845057855422245,71.54677186327206
2024-11-05 10:51:35.009261,37.394472011537204,-110.96534753164825,2200.0,0.4474888941482725,-0.7562945864190462,71.64262382560861
2024-11-05 10:52:35.009261,37.435913472477935,-110.80744749372721,1900.0,-0.47083342866009303,-1.5771507201966637,71.73867215378834
2024-11-05 10:53:35.009261,37.47714236047675,-110.64937513100688,1600.0,0.1680385685813113,-0.8948714700913307,71.83491626653063
2024-11-05 10:54:35.009261,37.51815814043282,-110.49113088887934,1300.0,0.21530393842937065,-1.111090669656978,71.93135557489575
2024-11-05 10:55:35.009261,37.55896027847333,-110.33271522052891,1000.0,-1.523054676941702,-0.8886354601661859,72.02798948226399
2024-11-05 10:56:35.009261,37.599548241978745,-110.17412858694965,1000.0,-0.9081229236436339,-0.41591110411522236,72.12481738431529
2024-11-05 10:57:35.009261,37.63992149960822,-110.01537145696234,1000.0,-0.22278126678694082,0.7266303316605172,72.22183866900923
2024-11-05 10:58:35.009261,37.68007952132505,-109.85644430723083,1000.0,-0.3232072125535796,-0.30611836725387515,72.31905271656615
2024-11-05 10:59:35.009261,37.72002177842223,-109.69734762227777,1000.0,2.064660746736358,-0.5654442176629578,72.41645889944795
2024-11-05 11:00:35.009261,37.75974774354821,-109.53808189449978,1000.0,-0.8601595916353237,0.26731454306121766,72.51405658234046
2024-11-05 11:01:35.009261,37.799256890732565,-109.37864762418185,1000.0,0.380254517589806,0.19457959783396436,72.61184512213578
2024-11-05 11:02:35.009261,37.8385486954119,-109.21904531951135,1000.0,-0.5965797690565996,-1.1027830285495346,72.70982386791513
2024-11-05 11:03:35.009261,37.87762263445584,-109.05927549659114,1000.0,0.20547295671603313,0.15565433672144244,72.80799216093305
2024-11-05 11:04:35.009261,37.916478186192975,-108.89933867945226,1000.0,0.18003577093255305,0.27662560999239183,72.90634933460132
2024-11-05 11:05:35.009261,37.955114830437054,-108.73923540006575,1000.0,0.3432701440734894,0.15807797859138914,73.00489471447378
2024-11-05 11:06:35.009261,37.99353204851316,-108.57896619835404,1000.0,-0.8102009239621214,0.766183862339058,73.10362761823234
2024-11-05 11:07:35.009261,38.031729323284004,-108.41853162220146,1000.0,-0.3268944697180818,0.17116891724481073,73.20254735567278
2024-11-05 11:08:35.009261,38.0697061391763,-108.25793222746418,1000.0,0.9036142535141805,-0.3157888645826657,73.30165322869175
2024-11-05 11:09:35.009261,38.10746198220717,-108.09716857797949,1000.0,-0.44784655225899284,0.09071331005698569,73.40094453127409
2024-11-05 11:10:35.009261,38.1449963400107,-107.93624124557425,1000.0,1.840846711663122,0.4070758810591333,73.50042054948113
2024-11-05 11:11:35.009261,38.1823087018645,-107.77515081007282,1000.0,0.30392948974360995,-0.7583212747103956,73.60008056143931
2024-11-05 11:12:35.009261,38.219398558716364,-107.61389785930412,1000.0,-0.830265525456359,-0.44334046114172865,73.69992383732978
2024-11-05 11:13:35.009261,38.25626540321098,-107.4524829891081,1000.0,0.7765427001357689,0.10769825272814397,73.79994963937816
2024-11-05 11:14:35.009261,38.29290872971672,-107.29090680334144,1000.0,0.10641817141125318,0.6479358909315072,73.90015722184586
2024-11-05 11:15:35.009261,38.329328034352486,-107.12916991388244,1000.0,0.3324227456528212,-0.5738456949078337,74.00054583102099
2024-11-05 11:16:35.009261,38.365522815014636,-106.96727294063531,1000.0,-1.9038742359039433,-0.034317023042734304,74.10111470521099
2024-11-05 11:17:35.009261,38.40149257140388,-106.80521651153366,1000.0,0.26614823760309453,-0.6208802877408122,74.20186307473512
2024-11-05 11:18:35.009261,38.43723680505237,-106.64300126254317,1000.0,-0.4030160165174112,0.5769503671278736,74.30279016191821
2024-11-05 11:19:35.009261,38.47275501935071,-106.48062783766363,1000.0,0.433915351504118,0.598623461822614,74.40389518108486
2024-11-05 11:20:35.009261,38.50804671957508,-106.31809688893013,1000.0,-0.724592815734861,0.9090309612789124,74.5051773385544
2024-11-05 11:21:35.009261,38.543111412914385,-106.15540907641343,1000.0,-0.6984376934805006,0.42777782951035603,74.60663583263658
2024-11-05 11:22:35.009261,38.57794860849749,-105.99256506821978,1000.0,-1.900886585758018,0.6591511624263346,74.70826985362788
2024-11-05 11:23:35.009261,38.61255781742044,-105.8295655404896,1000.0,-2.8985041584732336,-0.18741102831090306,74.81007858380877
2024-11-05 11:24:35.009261,38.64693855277371,-105.66641117739569,1000.0,0.9838110096140408,0.25781404422197823,74.91206119744152
2024-11-05 11:25:35.009261,38.68109032966954,-105.50310267114051,1000.0,-0.9438034087948628,-0.33849756922926566,75.01421686076873
2024-11-05 11:26:35.009261,38.71501266526926,-105.3396407219526,1000.0,-0.4093822231622262,-1.0129039365556884,75.1165447320127
2024-11-05 11:27:35.009261,38.74870507881071,-105.17602603808234,1000.0,-0.8725267342143953,-0.3561103818245255,75.21904396137546
2024-11-05 11:28:35.009261,38.78216709163554,-105.01225933579671,1000.0,-2.1438277338038234,0.43822782275146777,75.32171369103975
2024-11-05 11:29:35.009261,38.81539822721675,-104.84834133937342,1000.0,1.7697580718782526,-0.00015683630588735604,75.42455305517029
2024-11-05 11:30:35.009261,38.848398011186,-104.68427278109407,1000.0,1.408178655541298,-0.6710638742425575,75.52756117991635
2024-11-05 11:31:35.009261,38.88116597136118,-104.52005440123654,1000.0,-1.144734402914203,-0.8436721735553552,75.63073718341485
2024-11-05 11:32:35.009261,38.91370163777378,-104.35568694806652,1000.0,-0.8076053285103768,0.03907153148482372,75.7340801757939
2024-11-05 11:33:35.009261,38.94600454269644,-104.19117117782822,1000.0,2.00017905915338,-0.4160306524249283,75.83758925917766
2024-11-05 11:34:35.009261,38.9780742206704,-104.02650785473423,1000.0,-1.2796680950873665,0.1463577410709267,75.94126352769172
2024-11-05 11:35:35.009261,39.009910208532986,-103.86169775095449,1000.0,0.1839399905820381,-0.6683627194379653,76.04510206746909
2024-11-05 11:36:35.009261,39.04151204544514,-103.69674164660442,1000.0,-0.3183504935107523,-0.10672838967521912,76.14910395665731
2024-11-05 11:37:35.009261,39.07287927291882,-103.5316403297322,1000.0,-0.7868767088768428,0.2121969689305063,76.25326826542579
2024-11-05 11:38:35.009261,39.10401143484462,-103.36639459630518,1000.0,0.8881108570164685,-0.5386880384923791,76.35759405597457
2024-11-05 11:39:35.009261,39.13490807751914,-103.20100525019544,1000.0,0.23304685065882572,0.4520087773806572,76.46208038254349
2024-11-05 11:40:35.009261,39.165568749672495,-103.03547310316435,1000.0,1.267953732193371,0.5732204352003638,76.56672629142236
2024-11-05 11:41:35.009261,39.19599300249574,-102.86979897484643,1000.0,-1.3641257406861642,0.17573995017610083,76.67153082096115
2024-11-05 11:42:35.009261,39.22618038966832,-102.70398369273221,1000.0,0.26740799624048933,0.10636988792883016,76.77649300158237
2024-11-05 11:43:35.009261,39.25613046738549,-102.53802809215018,1000.0,-1.1342594075562058,0.41007909337774223,76.88161185579264
2024-11-05 11:44:35.009261,39.285842794385694,-102.37193301624797,1000.0,0.9419009508747316,-0.11136035038830353,76.98688639819659
2024-11-05 11:45:35.009261,39.31531693197793,-102.20569931597245,1000.0,-0.6132490357782611,0.2913687915869322,77.09231563551003
2024-11-05 11:46:35.009261,39.34455244406908,-102.03932785004916,1000.0,-0.5771290957289922,0.16455338935506478,77.19789856657519
2024-11-05 11:47:35.009261,39.373548897191206,-101.8728194849606,1000.0,-1.822333577021629,-0.6142219156328813,77.30363418237584
2024-11-05 11:48:35.009261,39.40230586052879,-101.70617509492376,1000.0,-1.208458751913985,0.07973125340206459,77.40952146605377
2024-11-05 11:49:35.009261,39.430822905945995,-101.53939556186671,1000.0,1.1907275868659406,0.2404540463744477,77.51555939292552
2024-11-05 11:50:35.009261,39.459099608013815,-101.37248177540425,1000.0,-0.35665697552068637,-0.07564961011626116,77.62174693050048
2024-11-05 11:51:35.009261,39.48713554403721,-101.20543463281267,1000.0,0.31056135123495465,0.08776811478929895,77.72808303849911
2024-11-05 11:52:35.009261,39.51493029408218,-101.03825503900356,1000.0,1.33430574495953,-0.7034075047487691,77.83456666887253
2024-11-05 11:53:35.009261,39.54248344100282,-100.87094390649676,1000.0,0.8963898088265664,0.3804233271557389,77.94119676582261
2024-11-05 11:54:35.009261,39.569794570468254,-100.70350215539233,1000.0,1.1257317338632755,0.09320808487202316,78.04797226582247
2024-11-05 11:55:35.009261,39.596863270989566,-100.53593071334157,1000.0,0.25179199913494765,-1.0410493515944936,78.15489209763854
2024-11-05 11:56:35.009261,39.6236891339466,-100.36823051551724,1000.0,0.03155277640304642,-0.7027815269281433,78.26195518235266
2024-11-05 11:57:35.009261,39.6502717536148,-100.20040250458268,1000.0,0.5258802866677267,-0.11075663147606195,78.36916043338493
2024-11-05 11:58:35.009261,39.676610727191935,-100.03244763066017,1000.0,-0.9419652027594665,0.15926050239943723,78.47650675651812
2024-11-05 11:59:35.009261,39.702705654824676,-99.86436685129819,1000.0,1.1485127271424416,-0.19368098227640562,78.58399304992179
2024-11-05 12:00:35.009261,39.728556139635145,-99.69616113143788,1000.0,1.6386108939674628,-0.1863377919759873,78.69161820417776
2024-11-05 12:01:35.009261,39.754161787747485,-99.52783144337852,1000.0,0.6278665395338382,0.8191798661354704,78.79938110230597
2024-11-05 12:02:35.009261,39.779522208314184,-99.35937876674207,1000.0,-0.28838445278598446,-0.12319170125727401,78.90728061979144
2024-11-05 12:03:35.009261,39.80463701354241,-99.19080408843679,1000.0,1.2930987110164656,-1.2131960352676041,79.01531562461162
2024-11-05 12:04:35.009261,39.82950581872026,-99.0221084026199,1000.0,0.333472717073569,-0.9019313962811825,79.12348497726424
2024-11-05 12:05:35.009261,39.854128242242815,-98.85329271065933,1000.0,0.03423608033444734,-0.7715591139714352,79.23178753079662
2024-11-05 12:06:35.009261,39.87850390563829,-98.6843580210945,1000.0,-0.12310037223172497,-0.2618656513857109,79.34022213083449
2024-11-05 12:07:35.009261,39.90263243359387,-98.51530534959623,1000.0,-1.0460422444451514,0.06313386811703409,79.44878761561301
2024-11-05 12:08:35.009261,39.926513453981606,-98.34613571892568,1000.0,1.2293408297838442,-0.5383395637355067,79.55748281600654
2024-11-05 12:09:35.009261,39.95014659788411,-98.17685015889232,1000.0,-0.9313302715214775,-0.2803804534899301,79.66630655556105
2024-11-05 12:10:35.009261,39.9735314996202,-98.00744970631104,1000.0,1.0035266334226,0.32300309355727574,79.77525765052536
2024-11-05 12:11:35.009261,39.9966677967704,-97.83793540495823,1000.0,0.496395008658247,0.5359649326058986,79.88433490988439
2024-11-05 12:12:35.009261,40.019555130202356,-97.66830830552706,1000.0,0.35947040184530504,-0.4221620185915355,79.99353713539199
2024-11-05 12:13:35.009261,40.04219314409608,-97.49856946558175,1000.0,1.158782517729838,0.14828846926515254,80.10286312160508
2024-11-05 12:14:35.009261,40.06458148596916,-97.32871994951087,1000.0,-1.3853743576665256,0.5269457761479416,80.21231165591792
2024-11-05 12:15:35.009261,40.08671980670173,-97.15876082847981,1000.0,-0.20493687583793563,0.18970269880255486,80.32188151859702
2024-11-05 12:16:35.009261,40.108607760561476,-96.98869318038231,1000.0,0.17715617088416402,0.4726057673057418,80.43157148281665
2024-11-05 12:17:35.009261,40.13024500522833,-96.818518089791,1000.0,-0.9964506396996266,0.18008209197288347,80.54138031469472
2024-11-05 12:18:35.009261,40.15163120181918,-96.64823664790708,1000.0,0.0032058290068363287,0.392001389655374,80.65130677332951
2024-11-05 12:19:35.009261,40.17276601491235,-96.47784995250912,1000.0,0.6955237914734138,-0.41944633701286815,80.76134961083608
2024-11-05 12:20:35.009261,40.19364911257203,-96.30735910790081,1000.0,-0.6700508230639647,-1.4571279949084706,80.87150757238396
2024-11-05 12:21:35.009261,40.21428016637247,-96.13676522485795,1000.0,1.491150087090796,-0.14160901947261628,80.98177939623508
2024-11-05 12:22:35.009261,40.23465885142211,-95.96606942057451,1000.0,-0.7869381017243227,-0.4750317487330636,81.09216381378116
2024-11-05 12:23:35.009261,40.25478484638754,-95.79527281860766,1000.0,0.41884409666748695,0.17848637963346306,81.20265954958307
2024-11-05 12:24:35.009261,40.27465783351728,-95.62437654882204,1000.0,-1.355804647774465,0.35074739096235724,81.31326532140912
2024-11-05 12:25:35.009261,40.29427749866548,-95.45338174733314,1000.0,-0.985202311894376,0.1247740947990385,81.42397984027411
2024-11-05 12:26:35.009261,40.31364353131541,-95.28228955644965,1000.0,-0.2563693961023793,-0.19993911933418573,81.53480181047883
2024-11-05 12:27:35.009261,40.332755624602825,-95.11110112461506,1000.0,1.3296580197147538,-0.4372178241699591,81.64572992964986
2024-11-05 12:28:35.009261,40.35161347533917,-94.93981760634833,1000.0,0.6948424928925026,-0.07082429300506345,81.7567628887789
2024-11-05 12:29:35.009261,40.370216784034625,-94.76844016218368,1000.0,0.1561966720103559,-0.2610657850099962,81.86789937226291
2024-11-05 12:30:35.009261,40.388565254921,-94.59696995860949,1000.0,-1.0549501163439297,-0.004922404325191502,81.97913805794394
2024-11-05 12:31:35.009261,40.40665859597443,-94.42540816800641,1000.0,1.6730111287439486,0.15262156326567647,82.09047761714965
2024-11-05 12:32:35.009261,40.42449651893798,-94.2537559685845,1000.0,-0.7304845725077218,-0.6673053034551163,82.20191671473259
2024-11-05 12:33:35.009261,40.44207873934401,-94.08201454431959,1000.0,-0.999153958015805,-1.0429489388666686,82.31345400911113
2024-11-05 12:34:35.009261,40.45940497653644,-93.91018508488878,1000.0,0.8173390346685137,-0.4240327990152543,82.42508815230843
2024-11-05 12:35:35.009261,40.47647495369283,-93.73826878560507,1000.0,2.2863973011937038,-0.617255999211198,82.53681778999322
2024-11-05 12:36:35.009261,40.49328839784622,-93.56626684735117,1000.0,0.7383822926294948,0.17558273381354203,82.64864156151879
2024-11-05 12:37:35.009261,40.509845039906935,-93.39418047651249,1000.0,0.05061383379107344,0.5185794493291216,82.7605580999624
2024-11-05 12:38:35.009261,40.52614461468412,-93.22201088490927,1000.0,0.2576591368660445,0.039058867618008176,82.87256603216434
2024-11-05 12:39:35.009261,40.542186860907115,-93.04975928972792,1000.0,0.15893945306897178,0.048913587353961334,82.98466397876655
2024-11-05 12:40:35.009261,40.55797152124672,-92.87742691345157,1000.0,-0.8599381056983126,-0.005433568517486072,83.09685055425052
2024-11-05 12:41:35.009261,40.573498342336194,-92.70501498378977,1000.0,0.22801545781768065,-0.22316025761717245,83.20912436697512
2024-11-05 12:42:35.009261,40.58876707479221,-92.53252473360736,1000.0,1.1692032707415405,-0.25298309949392767,83.32148401921347
2024-11-05 12:43:35.009261,40.60377747323553,-92.35995740085271,1000.0,-1.0466604593020647,-0.12847256256089076,83.4339281071887
2024-11-05 12:44:35.009261,40.618529296311536,-92.18731422848495,1000.0,-1.617627661373301,1.0112951152847407,83.54645522111008
2024-11-05 12:45:35.009261,40.63302230671063,-92.01459646440067,1000.0,1.6281717000022529,0.2079133147276715,83.6590639452067
2024-11-05 12:46:35.009261,40.647256271188425,-91.8418053613596,1000.0,-0.263019273890806,0.6168621391680965,83.77175285776127
2024-11-05 12:47:35.009261,40.66123096058582,-91.66894217690978,1000.0,-0.5031368045314644,-0.4007637950522708,83.8845205311423
2024-11-05 12:48:35.009261,40.674946149848836,-91.49600817331176,1000.0,0.07128710294487332,-0.463776665405864,83.99736553183516
2024-11-05 12:49:35.009261,40.688401618048324,-91.32300461746226,1000.0,-1.3212950572778897,-1.0889838660973439,84.1102864204716
2024-11-05 12:50:35.009261,40.70159714839956,-91.14993278081691,1000.0,-0.7000148797129662,0.32229771620758824,84.22328175185771
2024-11-05 12:51:35.009261,40.71453252828158,-90.9767939393124,1000.0,-0.5925220816732689,-0.31661569835748854,84.33635007500061
2024-11-05 12:52:35.009261,40.72720754925648,-90.80358937328786,1000.0,0.3029658514796548,0.12470884384252083,84.44948993313278
2024-11-05 12:53:35.009261,40.739622007088414,-90.63032036740556,1000.0,-0.36932567571961133,1.0413301610548988,84.56269986373457
2024-11-05 12:54:35.009261,40.751775701762625,-90.45698821057081,1000.0,-1.23012240817856,-0.7514353043411947,84.67597839855472
2024-11-05 12:55:35.009261,40.763668437504165,-90.28359419585138,1000.0,-0.35579550540038857,-0.8355848862470325,84.78932406362821
2024-11-05 12:56:35.009261,40.77530002279655,-90.110139620396,1000.0,0.006664832305074707,-0.26654520100791657,84.90273537929193
2024-11-05 12:57:35.009261,40.78667027040029,-89.93662578535239,1000.0,0.41889482071765316,-0.1383358858595727,85.01621086019674
2024-11-05 12:58:35.009261,40.79777899737129,-89.76305399578449,1000.0,-0.9305063162233278,0.23832552040027874,85.1297490153176
2024-11-05 12:59:35.009261,40.80862602507906,-89.58942556058909,1000.0,1.4572630295113491,0.4693200113394723,85.2433483479594
2024-11-05 13:00:35.009261,40.819211179224894,-89.41574179241186,1000.0,-1.3094969143191315,0.010053233434549193,85.35700735575995
2024-11-05 13:01:35.009261,40.829534289859936,-89.2420040075627,1000.0,-0.016017697341155962,-0.10857940356842831,85.47072453068847
2024-11-05 13:02:35.009261,40.83959519140304,-89.0682135259304,1000.0,-2.1987996238655847,-0.11529319926180642,85.58449835904048
2024-11-05 13:03:35.009261,40.84939372265869,-88.89437167089689,1000.0,1.4004581048670033,-0.6779851724299819,85.69832732142771
2024-11-05 13:04:35.009261,40.85892972683473,-88.72047976925063,1000.0,0.038680718213537184,0.34898701506504876,85.81220989276335
2024-11-05 13:05:35.009261,40.86820305156007,-88.54653915109962,1000.0,1.1866795173075468,0.06837332369961534,85.92614454224184
2024-11-05 13:06:35.009261,40.877213548902326,-88.37255114978369,1000.0,-0.22695007081325394,-0.05980981218438567,86.04012973331311
2024-11-05 13:07:35.009261,40.88596107538542,-88.19851710178627,1000.0,-2.2140713187424366,-0.2590345097375284,86.15416392365023
2024-11-05 13:08:35.009261,40.89444549200714,-88.0244383466456,1000.0,0.6818002114954606,-0.7502382745815008,86.26824556511093
2024-11-05 13:09:35.009261,40.90266666425669,-87.85031622686536,1000.0,1.6808582036525017,-0.45068783994858724,86.38237310369124
2024-11-05 13:10:35.009261,40.91062446213228,-87.67615208782476,1000.0,1.6829562086046863,0.22087336818877862,86.49654497947165
2024-11-05 13:11:35.009261,40.91831876015866,-87.5019472776881,1000.0,-0.8030278828650902,1.052648714729156,86.6107596265544
2024-11-05 13:12:35.009261,40.92574943740477,-87.32770314731377,1000.0,-0.7875922456885116,0.020462374364461425,86.72501547299203
2024-11-05 13:13:35.009261,40.93291637750141,-87.15342105016275,1000.0,0.2091350407122154,0.5470897737607378,86.83931094070522
2024-11-05 13:14:35.009261,40.939819468659024,-86.97910234220664,1000.0,0.8297601903630835,0.4086531018691631,86.95364444539041
2024-11-05 13:15:35.009261,40.94645860368562,-86.80474838183513,1000.0,0.18960186694806222,-0.13646666011275643,87.06801439641538
2024-11-05 13:16:35.009261,40.95283368000472,-86.63036052976291,1000.0,0.7548944574350587,0.04676174821930485,87.18241919670157
2024-11-05 13:17:35.009261,40.95894459967368,-86.45594014893629,1000.0,0.8318869747200658,-0.4184901772197935,87.29685724259332
2024-11-05 13:18:35.009261,40.964791269402,-86.28148860443915,1000.0,-0.007029269729357338,0.34166225575804593,87.41132692371127
2024-11-05 13:19:35.009261,40.97037360057003,-86.10700726339844,1000.0,-0.1524131753514459,0.21920634974832262,87.52582662278985
2024-11-05 13:20:35.009261,40.975691509247945,-85.93249749488935,1000.0,-2.703068556084948,-0.07472784658249439,87.64035471549573
2024-11-05 13:21:35.009261,40.980744916215016,-85.7579606698398,1000.0,1.2088458108159834,-0.016138447051308905,87.7549095702285
2024-11-05 13:22:35.009261,40.98553374697919,-85.5833981609347,1000.0,0.5469603342928728,0.321150617505588,87.86948954789841
2024-11-05 13:23:35.009261,40.990057931797296,-85.40881134251956,1000.0,-0.0824181783878495,-0.5409571843565665,87.98409300168078
2024-11-05 13:24:35.009261,40.99431740569553,-85.23420159050374,1000.0,-0.3372194705112189,-0.2928963617243451,88.0987182767467
2024-11-05 13:25:35.009261,40.99831210849065,-85.0595702822633,1000.0,-0.4820081529175424,-0.7063628794502781,88.21336370996335
2024-11-05 13:26:35.009261,41.0020419848117,-84.88491879654323,1000.0,2.7895189508570497,-0.518995677494615,88.32802762956527
2024-11-05 13:27:35.009261,41.005506984122434,-84.71024851335949,1000.0,0.36721809373328756,0.03225298643128586,88.44270835479165
2024-11-05 13:28:35.009261,41.008707060744634,-84.53556081390032,1000.0,-0.3561190958059704,0.252135374019192,88.55740419548624
2024-11-05 13:29:35.009261,41.01164217388216,-84.36085708042732,1000.0,1.3623596395776474,-0.2332870356013883,88.67211345165731
2024-11-05 13:30:35.009261,41.01431228764607,-84.18613869617595,1000.0,-1.4969651779278823,-0.5021452817471266,88.7868344129921
2024-11-05 13:31:35.009261,41.01671737108081,-84.01140704525561,1000.0,0.7027785137695608,-1.0138386358354243,88.90156535832239
2024-11-05 13:32:35.009261,41.01885739819158,-83.8366635125493,1000.0,1.278144835373515,0.2457063781777635,89.01630455503494
2024-11-05 13:33:35.009261,41.02073234797313,-83.66190948361265,1000.0,1.5500033817255452,0.6276748901442375,89.1310502584214
2024-11-05 13:34:35.009261,41.02234220444005,-83.48714634457265,1000.0,0.6948526224226648,0.701004662959561,89.24580071096176
2024-11-05 13:35:35.009261,41.02368695665867,-83.31237548202573,1000.0,1.603740742084943,0.05176907697458769,89.36055414153293
2024-11-05 13:36:35.009261,41.02476659878089,-83.13759828293536,1000.0,0.6913062940651947,0.48125144290005084,89.47530876453357
2024-11-05 13:37:35.009261,41.02558113008014,-82.96281613452913,1000.0,0.3919961502245358,-0.6560816005977589,89.59006277891757
2024-11-05 13:38:35.009261,41.02613055498951,-82.78803042419521,1000.0,0.8738110170491689,-1.3537719276905886,89.70481436712396
2024-11-05 13:39:35.009261,41.02641488314263,-82.6132425393782,1000.0,-1.745875620080162,-0.3475746790384362,89.81956169389053
2024-11-05 13:40:35.009261,41.02643412941732,-82.43845386747438,1000.0,-1.95372738025166,0.23041243270193265,89.9343029049383
2024-11-05 13:41:35.009261,41.026188313982516,-82.2636657957262,1000.0,-1.7010422527221698,-0.19654510035073075,90.04903612551044
2024-11-05 13:42:35.009261,41.02567746234878,-82.08887971111612,1000.0,2.1451470078469748,0.14101710960467126,90.16375945874574
2024-11-05 13:43:35.009261,41.0249016054228,-81.91409700025959,1000.0,0.8996170262356599,-0.30363070704304224,90.27847098386815
2024-11-05 13:44:35.009261,41.02386077956638,-81.73931904929714,1000.0,0.0071892313918779215,-0.2718034480465263,90.39316875416438
2024-11-05 13:45:35.009261,41.022555026660584,-81.56454724378561,1000.0,2.450778559185267,0.21856338986552593,90.50785079472462
2024-11-05 13:46:35.009261,41.020984394175436,-81.38978296858828,1000.0,0.41862029709953436,0.33331394172844536,90.62251509991034
2024-11-05 13:47:35.009261,41.01914893524607,-81.21502760776387,1000.0,-0.7106583101232432,-0.5628274839002925,90.7371596305129
2024-11-05 13:48:35.009261,41.01704870875605,-81.04028254445429,1000.0,0.44190460420407474,-0.3585909503612357,90.85178231055772
2024-11-05 13:49:35.009261,41.014683779428815,-80.86554916077098,1000.0,-0.3582346338093011,0.3512666569669278,90.96638102369877
2024-11-05 13:50:35.009261,41.0120542179284,-80.69082883767967,1000.0,1.3587267643425964,0.01221592008901708,91.08095360914547
2024-11-05 13:51:35.009261,41.00916010097058,-80.51612295488341,1000.0,0.7947304363020784,-0.8888404811851006,91.1954978570459
2024-11-05 13:52:35.009261,41.006001511445874,-80.34143289070356,1000.0,0.3200155580301222,-0.5636318962770736,91.31001150323834
2024-11-05 13:53:35.009261,41.00257853855625,-80.16676002195858,1000.0,1.0595891015561234,0.16232911775125916,91.4244922232707
2024-11-05 13:54:35.009261,40.99889127796732,-79.99210572384025,1000.0,0.5682609538019109,-0.07823868806157924,91.53893762555981
2024-11-05 13:55:35.009261,40.99493983197843,-79.817471369787,1000.0,0.6427592782803511,-0.19381491633162318,91.6533452435429
2024-11-05 13:56:35.009261,40.990724309713386,-79.64285833135385,1000.0,-0.0648147228338255,-0.09227572109297258,91.76771252663929
2024-11-05 13:57:35.009261,40.98624482733506,-79.46826797807857,1000.0,1.177268950791359,-0.3875224815081199,91.88203682980225
2024-11-05 13:58:35.009261,40.98150150828761,-79.29370167734335,1000.0,0.7392961513334029,-0.46550085581622075,91.99631540139274
2024-11-05 13:59:35.009261,40.97649448357113,-79.11916079423136,1000.0,-1.2608428823544302,0.57734688335836,92.11054536904061
2024-11-05 14:00:35.009261,40.971223892054205,-78.94464669137729,1000.0,-0.6186345369184731,0.6431910684977667,92.22472372308664
2024-11-05 14:01:35.009261,40.96568988083095,-78.77016072881077,1000.0,1.993143950269809,0.00594021725889597,92.33884729709212
2024-11-05 14:02:35.009261,40.95989260563102,-78.59570426379162,1000.0,1.0847269951553717,0.5236382042797313,92.45291274477358
2024-11-05 14:03:35.009261,40.95383223129253,-78.42127865063512,1000.0,0.2334271879280828,-0.9732626431794321,92.5669165125513
2024-11-05 14:04:35.009261,40.94750893231028,-78.24688524052563,1000.0,0.027542110311953482,0.6053372762710986,92.68085480667605
2024-11-05 14:05:35.009261,40.940922893474934,-78.0725253813161,1000.0,1.0475015895596262,0.38210660166942767,92.79472355360002
2024-11-05 14:06:35.009261,40.93407431062259,-77.89820041731056,1000.0,1.2922778686938965,0.03900370923942875,92.90851835185902
2024-11-05 14:07:35.009261,40.92696339151941,-77.72391168902594,1000.0,0.7915037260189026,-0.4558086510769513,93.02223441319632
2024-11-05 14:08:35.009261,40.919590356913126,-77.54966053292846,1000.0,0.10063748639225038,0.39410207039859335,93.13586648990605
2024-11-05 14:09:35.009261,40.91195544179227,-77.37544828113855,1000.0,-0.41189494990004083,0.31067336998455114,93.24940878435086
2024-11-05 14:10:35.009261,40.90405889690676,-77.20127626109652,1000.0,-1.049757870807433,-0.25013050829333777,93.36285483513649
2024-11-05 14:11:35.009261,40.89590099062105,-77.02714579517853,1000.0,0.9948449228830439,-0.7929228201929237,93.47619737233242
2024-11-05 14:12:35.009261,40.88748201119547,-76.85305820024897,1000.0,0.021298575742415518,-0.4903940042067796,93.589428131072
2024-11-05 14:13:35.009261,40.87880226962645,-76.6790147871307,1000.0,-0.6307286670658042,0.7418719551018534,93.70253760829769
2024-11-05 14:14:35.009261,40.869862103227064,-76.50501685996693,1000.0,1.0037135877056969,0.12736556869010474,93.81551474051457
2024-11-05 14:15:35.009261,40.860661880205406,-76.33106571543867,1000.0,2.7313147919996785,0.42222793603583286,93.9283464696328
2024-11-05 14:16:35.009261,40.85120200561287,-76.15716264178498,1000.0,1.1131092368202766,-0.19224456052075897,94.04101714680496
2024-11-05 14:17:35.009261,40.84148292921519,-75.98330891754927,1000.0,-0.20516345209615494,-1.800542552229759,94.15350769586667
2024-11-05 14:18:35.009261,40.83150515612955,-75.80950580993446,1000.0,-0.6476780108496584,0.4972791178708108,94.26579440987865
2024-11-05 14:19:35.009261,40.82126926155803,-75.63575457258449,1000.0,0.3819859164153896,0.08324656355756226,94.37784716910267
2024-11-05 14:20:35.009261,40.810775911796334,-75.46205644249433,1000.0,0.06336662468126879,0.06277429332557415,94.48962671112588
2024-11-05 14:21:35.009261,40.80002589525396,-75.2884126355434,1000.0,-0.3768249790057235,0.5076104459071527,94.6010802760909
2024-11-05 14:22:35.009261,40.78902017025128,-75.11482433974308,1000.0,0.437217129331546,0.8615373588231249,94.71213430943783
2024-11-05 14:23:35.009261,40.777759942703355,-74.94129270445218,1000.0,0.6511593922537537,-0.1351338021819445,94.82268146315846
2024-11-05 14:24:35.009261,40.76624680137232,-74.76781882190207,1000.0,-2.8408739346817513,0.27229120039681404,94.93255555878363
2024-11-05 14:25:35.009261,40.75448297613764,-74.59440369245489,1000.0,0.15067266424654543,0.23762930235865576,95.04147808886358
2024-11-05 14:26:35.009261,40.74247190032698,-74.42104815007293,1000.0,0.34400834396336105,0.28239455295382404,95.14892599347786
2024-11-05 14:27:35.009261,40.730219711364484,-74.24775266632493,1000.0,-2.2098368280791427,1.2093888896567317,95.25372364794134
2024-11-05 14:28:35.009261,40.71774104946661,-74.07451660441836,1000.0,-0.7719396818050839,0.3676346549874937,95.3521740429336
2024-11-05 14:29:35.009261,40.70512344958648,-73.90133008861753,1000.0,0.3297924368071344,0.2902838435178074,95.41258441021671
2024-11-05 14:30:35.009261,40.82896905115205,-73.9759477713368,1000.0,-10.37738651746221,0.6724270155903472,335.4125844102167
2024-11-05 14:31:35.009261,40.71754570928088,-74.08002430869162,1000.0,-10.202338906870088,-0.09162262160464096,215.4125844102167
2024-11-05 14:32:35.009261,40.70492810986674,-73.90683829888776,1000.0,-8.83558825946473,0.4628383788569347,95.41258441021671
2024-11-05 14:33:35.009261,40.828773715803926,-73.98145576264481,1000.0,-10.103462789846924,-0.2447853235153358,335.4125844102167
2024-11-05 14:34:35.009261,40.71735037047186,-74.08553199578864,1000.0,-10.232273502799472,0.0052728558705128,215.4125844102167
2024-11-05 14:35:35.009261,40.70473277152372,-73.91234649197321,1000.0,-8.915499469709074,-0.012594341764739735,95.41258441021671
2024-11-05 14:36:35.009261,40.828578381832486,-73.98696373677174,1000.0,-10.543420429776518,0.6319279695481942,335.4125844102167
2024-11-05 14:37:35.009261,40.71715503303955,-74.09103966570973,1000.0,-9.35633124697751,1.0386717197849766,215.4125844102167
2024-11-05 14:38:35.009261,40.704537434557395,-73.91785466787418,1000.0,-9.45537542550066,0.2247167579736311,95.41258441021671
2024-11-05 14:39:35.009261,40.82838304923771,-73.99247169371789,1000.0,-6.622617080917355,0.3382537382199875,335.4125844102167
2024-11-05 14:40:35.009261,40.71695969698393,-74.09654731845517,1000.0,-11.123878405125595,0.1890231302139416,215.4125844102167
2024-11-05 14:41:35.009261,40.704342098967736,-73.92336282659096,1000.0,-8.546159762878116,-0.23998232135610448,95.41258441021671
2024-11-05 14:42:35.009261,40.828187718019564,-73.99797963348354,1000.0,-10.160074486608305,-0.12170515128395397,335.4125844102167
2024-11-05 14:43:35.009261,40.716764362304964,-74.10205495402525,1000.0,-9.571238741119236,0.3852317978436133,215.4125844102167
2024-11-05 14:44:35.009261,40.704146764754746,-73.92887096812383,1000.0,-9.190342469851759,0.11535587453748129,95.41258441021671
2024-11-05 14:45:35.009261,40.82799238817804,-74.00348755606899,1000.0,-8.64763745407385,-1.1824276863957561,335.4125844102167
2024-11-05 14:46:35.009261,40.71656902900264,-74.10756257242028,1000.0,-10.766352609265017,-0.03939420004014996,215.4125844102167
2024-11-05 14:47:35.009261,40.703951431918384,-73.93437909247312,1000.0,-8.992695642526737,0.011692607329253831,95.41258441021671
2024-11-05 14:48:35.009261,40.82779705971311,-74.00899546147456,1000.0,-8.087311865643205,-0.66242289046637,335.4125844102167
2024-11-05 14:49:35.009261,40.71637369707696,-74.11307017364055,1000.0,-10.600338659006487,0.2967697161465954,215.4125844102167
2024-11-05 14:50:35.009261,40.70375610045866,-73.9398871996391,1000.0,-8.733669732043712,0.3549663740736187,95.41258441021671
2024-11-05 14:51:35.009261,40.82760173262479,-74.0145033497005,1000.0,-10.401209206544678,0.35479973969178324,335.4125844102167
2024-11-05 14:52:35.009261,40.7161783665279,-74.11857775768634,1000.0,-8.135951469588242,-1.0707154401598524,215.4125844102167
2024-11-05 14:53:35.009261,40.70356077037554,-73.94539528962204,1000.0,-9.781281733858512,-0.08340737034919662,95.41258441021671
2024-11-05 14:54:35.009261,40.827406406913035,-74.02001122074712,1000.0,-9.490704676357993,-0.30803560766816185,335.4125844102167
2024-11-05 14:55:35.009261,40.71598303735543,-74.12408532455794,1000.0,-10.324857926498547,0.42981539342742303,215.4125844102167
2024-11-05 14:56:35.009261,40.70336544166899,-73.95090336242227,1000.0,-9.489464621548764,0.10086932739802196,95.41258441021671
2024-11-05 14:57:35.009261,40.82721108257783,-74.02551907461472,1000.0,-9.355689499891799,0.0732378058266591,335.4125844102167
2024-11-05 14:58:35.009261,40.83405057242967,-74.12110887688036,1000.0,-4.868880675324853,0.44242129140057923,275.4125844102167
2024-11-05 14:59:35.009261,40.797498338142944,-74.15530187767585,1000.0,-4.947542613110556,0.3899143203775248,215.4125844102167
2024-11-05 15:00:35.009261,40.75914833622608,-74.13222579461689,1000.0,-6.158603263659485,-0.9078244879394087,155.4125844102167
2024-11-05 15:01:35.009261,40.74136837329666,-74.0839251520392,1000.0,-2.9191244024302767,0.6713609306755928,115.81317456091034
2024-11-05 15:02:35.009261,40.723602885428726,-74.0356288314926,1000.0,-0.3456169688979727,0.060730532099772944,115.79084916825599
2024-11-05 15:03:35.009261,40.7128,-74.006,1000.0,-1.777343812630902,-0.1503371802218413,115.68060635772395
